[
    {
        "name": "台灣中油宜蘭站（直營＆自助）",
        "address": "260台灣宜蘭縣宜蘭市中山路五段139號",
        "googlemap": "https://maps.app.goo.gl/sF2NVy5rzG7nu7y48",
        "lng": 121.7565588,
        "lat": 24.7704907
    },
    {
        "name": "台灣中油 羅東站(直營&自助)",
        "address": "268台灣宜蘭縣五結鄉中正路二段94號",
        "googlemap": "https://maps.app.goo.gl/mV9toivTXU49GWFg7",
        "lng": 121.76926399999999,
        "lat": 24.697559
    },
    {
        "name": "廣進加油站有限公司",
        "address": "260台灣宜蘭縣宜蘭市中山路一段116號",
        "googlemap": "https://maps.app.goo.gl/EPk1J9wC5qdYJF448",
        "lng": 121.76893,
        "lat": 24.723934
    },
    {
        "name": "台灣中油礁溪四城站(直營&自助)",
        "address": "260021台灣宜蘭縣宜蘭市中山路五段580號",
        "googlemap": "https://maps.app.goo.gl/pmF1sB9zfACLFvtH9",
        "lng": 121.7606624,
        "lat": 24.7821213
    },
    {
        "name": "台亞宜蘭宜興站(直營+自助加油)",
        "address": "260台灣宜蘭縣宜蘭市宜興路一段225號",
        "googlemap": "https://maps.app.goo.gl/Q3DpWHuexRnbwz3v6",
        "lng": 121.75760899999999,
        "lat": 24.755267099999998
    },
    {
        "name": "台灣中油 礁溪站(直營-自助-數位充氣)",
        "address": "262台灣宜蘭縣礁溪鄉礁溪路六段28號",
        "googlemap": "https://maps.app.goo.gl/29Jstf3aGfUiXM5r9",
        "lng": 121.77760219999999,
        "lat": 24.8301667
    },
    {
        "name": "台灣中油 員山站(直營-數位充氣)- Gogoro 電池交換站",
        "address": "264台灣宜蘭縣員山鄉員山路一段31號",
        "googlemap": "https://maps.app.goo.gl/WRrWhZG6baHs1mQcA",
        "lng": 121.7310356,
        "lat": 24.747659
    },
    {
        "name": "台灣中油 億昌站(加盟)",
        "address": "266台灣宜蘭縣三星鄉大洲路149號",
        "googlemap": "https://www.google.com/maps/search",
        "lng": 121.72813199999997,
        "lat": 24.698238999999997
    },
    {
        "name": "台灣中油 金湧站(加盟) 24H",
        "address": "260台灣宜蘭縣宜蘭市環市東路二段568號",
        "googlemap": "https://maps.app.goo.gl/fqMWTHykMjxLSF2FA",
        "lng": 121.77184700000001,
        "lat": 24.750381299999997
    },
    {
        "name": "台灣中油 蘭陽站（自助加油 self service)",
        "address": "260台灣宜蘭縣宜蘭市宜興路三段188號",
        "googlemap": "https://maps.app.goo.gl/fwRJpB1TejgWvPsa9",
        "lng": 121.7586281,
        "lat": 24.7712838
    },
    {
        "name": "全國加油站 府前站",
        "address": "260台灣宜蘭縣宜蘭市中山路一段545號",
        "googlemap": "https://maps.app.goo.gl/XaCLC5H67jXaB5Dh8",
        "lng": 121.76204059999999,
        "lat": 24.7356205
    },
    {
        "name": "台灣中油 上德站(加盟)",
        "address": "260台灣宜蘭縣宜蘭市中山路一段340號",
        "googlemap": "https://maps.app.goo.gl/ZBWJCTVNLsLLYrrM7",
        "lng": 121.76575299999999,
        "lat": 24.7301355
    },
    {
        "name": "台灣中油股份有限公司壯圍加油站(直營&自助)",
        "address": "263台灣宜蘭縣壯圍鄉壯五路391號",
        "googlemap": "https://maps.app.goo.gl/TDyj3QfxteFd2Qvv7",
        "lng": 121.782726,
        "lat": 24.7475009
    },
    {
        "name": "台灣中油 府城站(加盟)",
        "address": "260台灣宜蘭縣宜蘭市中山路一段145號",
        "googlemap": "https://maps.app.goo.gl/jaoY7QnPLGNndgsC8",
        "lng": 121.76841909999999,
        "lat": 24.723926
    },
    {
        "name": "台灣中油 五結站(加盟)",
        "address": "268台灣宜蘭縣五結鄉五結路三段565號",
        "googlemap": "https://maps.app.goo.gl/sJQc8JWKUM53AWr37",
        "lng": 121.78023290000002,
        "lat": 24.682411
    },
        {
        "name": "台灣中油 東寶站(加盟)",
        "address": "268宜蘭縣五結鄉光榮北路8號",
        "googlemap": "https://maps.app.goo.gl/LCZX6FiUsF9SQJVV8",
        "lng": 24.68243559252225,
        "lat": 121.77806318649803
    },
    {
        "name": "台灣中油 大埔加油站",
        "address": "266台灣宜蘭縣三星鄉三星路一段435號",
        "googlemap": "https://maps.app.goo.gl/Vow3FaPcdTQuvQ8Q6",
        "lng": 121.71764689999999,
        "lat": 24.669902000000004
    },
    {
        "name": "台灣中油 信宜站（人工&中油自助）",
        "address": "26245台灣宜蘭縣礁溪鄉礁溪路三段38號",
        "googlemap": "https://maps.app.goo.gl/8vcVXCVvvYE5obyQ8",
        "lng": 121.76536089999999,
        "lat": 24.8020358
    },
    {
        "name": "台灣中油 三星站(直營&自助)",
        "address": "266台灣宜蘭縣三星鄉三星路四段235號",
        "googlemap": "https://maps.app.goo.gl/5rYyQLZyxvYLRJWi9",
        "lng": 121.65774580000001,
        "lat": 24.667367300000002
    },
    {
        "name": "台灣中油 新水站(直營-數位充氣)",
        "address": "268台灣宜蘭縣五結鄉五濱路二段206號",
        "googlemap": "https://maps.app.goo.gl/cLCBD8iMrCFgLjUH9",
        "lng": 121.82701369999998,
        "lat": 24.6804529
    },
    {
        "name": "台灣中油 冬山站 (直營-自助-數位充氣)",
        "address": "269台灣宜蘭縣冬山鄉冬山路二段260號",
        "googlemap": "https://maps.app.goo.gl/WqFKyXTGG5omacyo8",
        "lng": 121.7870059,
        "lat": 24.6415735
    },
    {
        "name": "台灣中油 蘇澳站(直營、自助、充氣)",
        "address": "270台灣宜蘭縣蘇澳鎮中山路一段196號",
        "googlemap": "https://maps.app.goo.gl/wdccS8qoz8gkz4UJ7",
        "lng": 121.84703400000001,
        "lat": 24.596062
    },
    {
        "name": "台灣中油 頭城站(直營)",
        "address": "261台灣宜蘭縣頭城鎮開蘭路300號",
        "googlemap": "https://maps.app.goo.gl/p1aaBPkEQdiKPphL9",
        "lng": 121.828499,
        "lat": 24.864573
    },
    {
        "name": "台灣中油 純精站(加盟)",
        "address": "265台灣宜蘭縣羅東鎮純精路一段177號",
        "googlemap": "https://maps.app.goo.gl/p6txp8HTTao6rrts7",
        "lng": 121.76359090000001,
        "lat": 24.67195
    },
    {
        "name": "台灣中油 玉田站(加盟&自助)",
        "address": "263台灣宜蘭縣壯圍鄉美功路二段150號",
        "googlemap": "https://maps.app.goo.gl/MhanQmVcTohgU8Av5",
        "lng": 121.78372949999998,
        "lat": 24.7833538
    },
    {
        "name": "台灣中油 豐富站(加盟) 24H",
        "address": "262台灣宜蘭縣礁溪鄉礁溪路三段266號",
        "googlemap": "https://maps.app.goo.gl/81VA7tzYrtoagq9Z9",
        "lng": 121.76753699999999,
        "lat": 24.8114381
    },
    {
        "name": "中油 金泉站",
        "address": "262台灣宜蘭縣礁溪鄉礁溪路七段105號",
        "googlemap": "https://maps.app.goo.gl/rZFtDJntWC4iLVFS7",
        "lng": 121.7868425,
        "lat": 24.837185599999998
    },
    {
        "name": "台灣中油 新城站 24H",
        "address": "269台灣宜蘭縣冬山鄉冬山路一段420號",
        "googlemap": "https://maps.app.goo.gl/kAoU2LU6npVGjkRS7",
        "lng": 121.80453100000001,
        "lat": 24.622707
    }
]