[
    {
        "name": "PlatY Hotel",
        "address": "261宜蘭縣頭城鎮濱海路二段106號",
        "googlemap": "https:\/\/maps.app.goo.gl\/Aookn56Jh6S9BkyJ7",
        "lat": 24.880593,
        "lng": 121.844745
    },
    {
        "name": "HOFIVILlat和風飯店",
        "address": "261宜蘭縣頭城鎮宜三路一段56號",
        "googlemap": "https:\/\/maps.app.goo.gl\/Q6UTfJc7Mp7p8C38A",
        "lat": 24.842725,
        "lng": 121.795778
    },
    {
        "name": "雅閣溫泉行館",
        "address": "262宜蘭縣礁溪鄉忠孝路107號",
        "googlemap": "https:\/\/maps.app.goo.gl\/ABBtX2VZmzRPJUP27",
        "lat": 24.832645,
        "lng": 121.773719
    },
    {
        "name": "礁溪長榮鳳凰酒店",
        "address": "262宜蘭縣礁溪鄉健康路77號",
        "googlemap": "https:\/\/maps.app.goo.gl\/NXrzKiDQGpSzsb8M8",
        "lat": 24.831123,
        "lng": 121.775277
    },
    {
        "name": "ISPAVITA佧美‧奧之湯",
        "address": "262宜蘭縣礁溪鄉健康一街116號",
        "googlemap": "https:\/\/maps.app.goo.gl\/GFSEnZuV62QTBo488",
        "lat": 24.830823,
        "lng": 121.773071
    },
    {
        "name": "中天溫泉渡假飯店",
        "address": "262宜蘭縣礁溪鄉健康一街1號",
        "googlemap": "https:\/\/maps.app.goo.gl\/wDRBLKhqH93SPLrr5",
        "lat": 24.829888,
        "lng": 121.776054
    },
    {
        "name": "麗翔酒店連鎖 - 礁溪館",
        "address": "262宜蘭縣礁溪鄉礁溪路六段6號",
        "googlemap": "https:\/\/maps.app.goo.gl\/CtbJqke9ZgbsV55T7",
        "lat": 24.829421,
        "lng": 121.776998
    },
    {
        "name": "九號溫泉旅店",
        "address": "262宜蘭縣礁溪鄉溫泉路85號",
        "googlemap": "https:\/\/maps.app.goo.gl\/W394zwbkH5uawVH89",
        "lat": 24.829815,
        "lng": 121.772285
    },
    {
        "name": "礁溪寒沐酒店 MU Jiao Xi Hotel Yilatn",
        "address": "262宜蘭縣礁溪鄉健康路1號",
        "googlemap": "https:\/\/maps.app.goo.gl\/SsvV6qcidP8zDUCd8",
        "lat": 24.829607,
        "lng": 121.772802
    },
    {
        "name": "礁溪寒沐行館",
        "address": "262宜蘭縣礁溪鄉健康路2號",
        "googlemap": "https:\/\/maps.app.goo.gl\/EgoM3RRpVD5AJN786",
        "lat": 24.829415,
        "lng": 121.773037
    },
    {
        "name": "山形閣 Yamagata Kaku Hotel & Spa",
        "address": "262宜蘭縣礁溪鄉中山路二段187號26242",
        "googlemap": "https:\/\/maps.app.goo.gl\/aq7Wqv9gchLXihSD6",
        "lat": 24.8282399202,
        "lng": 121.7750451316
    },
    {
        "name": "捷絲旅宜蘭礁溪館",
        "address": "262宜蘭縣礁溪鄉德陽路24巷8號",
        "googlemap": "https:\/\/maps.app.goo.gl\/67PBrJ4W7bTSMBYh6",
        "lat": 24.8287619261,
        "lng": 121.7724721765
    },
    {
        "name": "礁溪晶泉丰旅 Wellspring by Silks Jiaoxi",
        "address": "26248宜蘭縣礁溪鄉溫泉路67號",
        "googlemap": "https:\/\/maps.app.goo.gl\/FSS22dXmm5HdnfTd6",
        "lat": 24.8288028657,
        "lng": 121.7728691374
    },
    {
        "name": "雪山溫泉會館-宜蘭縣旅館169號",
        "address": "262宜蘭縣礁溪鄉中山路二段159號",
        "googlemap": "https:\/\/maps.app.goo.gl\/HeRGRrN7BQMZav3g7",
        "lat": 24.827272,
        "lng": 121.774213
    },
    {
        "name": "中冠礁溪大飯店-宜蘭縣旅館067號",
        "address": "262宜蘭縣礁溪鄉德陽路6號",
        "googlemap": "https:\/\/maps.app.goo.gl\/TL9i6eyqyNhCWXra9",
        "lat": 24.827566,
        "lng": 121.773238
    },
    {
        "name": "川湯春天溫泉飯店",
        "address": "262宜蘭縣礁溪鄉德陽路43號",
        "googlemap": "https:\/\/maps.app.goo.gl\/rpEm8ofdXU3YDa6R8",
        "lat": 24.828303,
        "lng": 121.771957
    },
    {
        "name": "Four Points by Sheraton Yilatn Jiaoxi",
        "address": "262宜蘭縣礁溪鄉仁愛路 48巷18弄1號",
        "googlemap": "https:\/\/maps.app.goo.gl\/zCLi7aLVenCuUqcHA",
        "lat": 24.828185,
        "lng": 121.769456
    },
    {
        "name": "冠翔泉旅",
        "address": "262宜蘭縣礁溪鄉仁愛路66巷6號",
        "googlemap": "https:\/\/maps.app.goo.gl\/w8Jy4X66x8WAJwy59",
        "lat": 24.827159,
        "lng": 121.769299
    },
    {
        "name": "礁溪老爺酒店",
        "address": "262宜蘭縣礁溪鄉五峰路69號",
        "googlemap": "https:\/\/maps.app.goo.gl\/5sMcyk38CA63ZFKU7",
        "lat": 24.828221,
        "lng": 121.755571
    },
    {
        "name": "Onsense Villat",
        "address": "262宜蘭縣礁溪鄉奇立丹路76巷2-9號",
        "googlemap": "https:\/\/maps.app.goo.gl\/s37ZMEMoXRBNGesy6",
        "lat": 24.821576,
        "lng": 121.775313
    },
    {
        "name": "礁溪麒麟酒店 Kilin Hotel, JiaoXi",
        "address": "262宜蘭縣礁溪鄉礁溪路五段116號",
        "googlemap": "https:\/\/maps.app.goo.gl\/bQnAmQCZuizsv1Aq7",
        "lat": 24.827309,
        "lng": 121.77225
    },
    {
        "name": "悅川酒店",
        "address": "260宜蘭縣宜蘭市中山路五段123號",
        "googlemap": "https:\/\/maps.app.goo.gl\/GDGRSeHJQL1Fw1577",
        "lat": 24.769854,
        "lng": 121.756438
    },
    {
        "name": "蘭城晶英酒店",
        "address": "260宜蘭縣宜蘭市民權路二段36號",
        "googlemap": "https:\/\/maps.app.goo.gl\/QiQhrhdbnKWVKtNv7",
        "lat": 24.753707,
        "lng": 121.75024
    },
    {
        "name": "The Westin Yilatn Resort",
        "address": "26447宜蘭縣員山鄉永同路三段268號",
        "googlemap": "https:\/\/maps.app.goo.gl\/pFDajQZgN1aFr8ag7",
        "lat": 24.751588,
        "lng": 121.712239
    },
    {
        "name": "煙波大飯店 宜蘭館",
        "address": "260宜蘭縣宜蘭市凱旋路135號",
        "googlemap": "https:\/\/maps.app.goo.gl\/7CBDUZqSYXkPJMUKA",
        "lat": 24.7255344715,
        "lng": 121.7622149768
    },
    {
        "name": "綠舞國際觀光飯店",
        "address": "268宜蘭縣五結鄉五濱路二段459號",
        "googlemap": "https:\/\/maps.app.goo.gl\/7QmnQG2bYaNEXRSw7",
        "lat": 24.702608,
        "lng": 121.818841
    },
    {
        "name": "宜蘭輕塵別院",
        "address": "268宜蘭縣五結鄉大吉五路157巷68號",
        "googlemap": "https:\/\/maps.app.goo.gl\/oFbVmYazb3JASXss9",
        "lat": 24.701637,
        "lng": 121.797292
    },
    {
        "name": "The Sunbeam Hideaway B&B 小隱日光 民宿",
        "address": "265宜蘭縣羅東鎮四維路152巷13號",
        "googlemap": "https:\/\/maps.app.goo.gl\/ekvwKrZBt41jKd5i7",
        "lat": 24.686282,
        "lng": 121.753157
    },
    {
        "name": "水岸森林休閒農場",
        "address": "269宜蘭縣冬山鄉柯林新路90號",
        "googlemap": "https:\/\/maps.app.goo.gl\/Lhsx5K9YyTipp1dQ6",
        "lat": 24.683741,
        "lng": 121.731841
    },
    {
        "name": "jane橙堡",
        "address": "268宜蘭縣五結鄉傳藝路一段425號",
        "googlemap": "https:\/\/maps.app.goo.gl\/kuFcLJL5nwuHeWXR8",
        "lat": 24.681232129,
        "lng": 121.806569573
    },
    {
        "name": "香格里拉冬山河渡假飯店",
        "address": "268宜蘭縣五結鄉公園二路15號",
        "googlemap": "https:\/\/maps.app.goo.gl\/46HQPRDimc3spJSq7",
        "lat": 24.67679,
        "lng": 121.813569
    },
    {
        "name": "東時光－藍會館",
        "address": "268宜蘭縣五結鄉公園二路175號",
        "googlemap": "https:\/\/maps.app.goo.gl\/o2K7BBaqWfYvXfmp8",
        "lat": 24.676655,
        "lng": 121.806033
    },
    {
        "name": "村却國際溫泉酒店",
        "address": "265宜蘭縣羅東鎮站東路190號",
        "googlemap": "https:\/\/maps.app.goo.gl\/zsqzRBXi8pc5KLzV6",
        "lat": 24.673523,
        "lng": 121.775074
    },
    {
        "name": "泉月樓行館APEXVILlat",
        "address": "269宜蘭縣冬山鄉茄苳路219號",
        "googlemap": "https:\/\/maps.app.goo.gl\/z8eZiZJMKK33SHy69",
        "lat": 24.657233,
        "lng": 121.804995
    },
    {
        "name": "宜蘭民宿渥爾夫W-Star",
        "address": "269宜蘭縣冬山鄉武罕五路219號",
        "googlemap": "https:\/\/maps.app.goo.gl\/VgBajApfPGDB93PG9",
        "lat": 24.661838,
        "lng": 121.793589
    },
    {
        "name": "水月星賞",
        "address": "162 巷 號 No. 26, 永興路一段冬山鄉宜蘭縣269",
        "googlemap": "https:\/\/maps.app.goo.gl\/qT68X52X5SUHGbsC9",
        "lat": 24.656424,
        "lng": 121.772195
    },
    {
        "name": "水畔星墅時尚會館",
        "address": "269宜蘭縣冬山鄉丸山六路128號",
        "googlemap": "https:\/\/maps.app.goo.gl\/ghhhAUD5UJJX96SU7",
        "lat": 24.64258,
        "lng": 121.753375
    },
    {
        "name": "芯園 我的夢中城堡",
        "address": "269宜蘭縣冬山鄉富農路一段312巷120號",
        "googlemap": "https:\/\/maps.app.goo.gl\/N54NifJV8ifthhvo6",
        "lat": 24.6413163427,
        "lng": 121.7968833516
    },
    {
        "name": "瓏山林蘇澳冷熱泉度假飯店",
        "address": "27041宜蘭縣蘇澳鎮中原路301號",
        "googlemap": "https:\/\/maps.app.goo.gl\/TApog1J3xAg83gF36",
        "lat": 24.596812,
        "lng": 121.847371
    },
    {
        "name": "煙波大飯店蘇澳四季雙泉館",
        "address": "270宜蘭縣蘇澳鎮中正路38號",
        "googlemap": "https:\/\/maps.app.goo.gl\/DSnBTcQWQmRWyYqM9",
        "lat": 24.59793,
        "lng": 121.853266
    },
    {
        "name": "礁溪溫泉公園",
        "address": "262宜蘭縣礁溪鄉公園路70巷60號",
        "googlemap": "https:\/\/maps.app.goo.gl\/XApq2mvK3kfKvvNe6",
        "lat": 24.832635,
        "lng": 121.776615
    },
    {
        "name": "湯圍溝溫泉公園",
        "address": "262宜蘭縣礁溪鄉德陽路99-11號",
        "googlemap": "https:\/\/maps.app.goo.gl\/sKY9ycZvcpCFSoif9",
        "lat": 24.828515,
        "lng": 121.769957
    },
    {
        "name": "9號溫泉魚",
        "address": "262宜蘭縣礁溪鄉溫泉路85號",
        "googlemap": "https:\/\/maps.app.goo.gl\/CmUsLix53z2WNiGu7",
        "lat": 24.829386,
        "lng": 121.772675
    },
    {
        "name": "大樹下溫泉魚",
        "address": "262宜蘭縣礁溪鄉仁愛路17之一號",
        "googlemap": "https:\/\/maps.app.goo.gl\/S4a8iTCspKufHgmT6",
        "lat": 24.827898,
        "lng": 121.770816
    },
    {
        "name": "黑肉姐魚泡腳",
        "address": "262003宜蘭縣礁溪鄉仁愛路30巷19號",
        "googlemap": "https:\/\/maps.app.goo.gl\/yHDMG3YUEAi1ozvS8",
        "lat": 24.827801,
        "lng": 121.770125
    },
    {
        "name": "礁溪湯圍溝重口味溫泉魚",
        "address": "262宜蘭縣礁溪鄉仁愛路23號",
        "googlemap": "https:\/\/maps.app.goo.gl\/j3TRJdGKU6x42gVe8",
        "lat": 24.827458,
        "lng": 121.770529
    },
    {
        "name": "親子溫泉魚體驗館",
        "address": "262宜蘭縣礁溪鄉仁愛路19巷18號",
        "googlemap": "https:\/\/maps.app.goo.gl\/u1NV7szrAHWg7vez8",
        "lat": 24.827448,
        "lng": 121.771264
    },
    {
        "name": "湯圍溝溫泉魚",
        "address": "262宜蘭縣礁溪鄉仁愛路旁號",
        "googlemap": "https:\/\/maps.app.goo.gl\/kuQHrRwiCzzXdJA66",
        "lat": 24.827299,
        "lng": 121.771482
    }
]