[
    {
        "name": "奕順軒宜蘭店",
        "address": "260台灣宜蘭縣宜蘭市神農路二段17號",
        "googlemap": "https://maps.app.goo.gl/eMG24jgJgHG1zU65A",
        "lng": 121.7506887,
        "lat": 24.750866499999997
    },
    {
        "name": "（抹茶山伴手禮－宜蘭 名產｜宜蘭 礁溪 ）鴨賞 牛舌餅",
        "address": "262台灣宜蘭縣礁溪鄉礁溪路七段23-1號對面",
        "googlemap": "https://maps.app.goo.gl/6L8WuuKdwwwrcZYL9",
        "lng": 121.78378859999998,
        "lat": 24.835823299999998
    },
    {
        "name": "食在幸福雪花餅(創始店)",
        "address": "26843台灣宜蘭縣五結鄉國民南路5-15號",
        "googlemap": "https://maps.app.goo.gl/6SdQ7Axr5FZxbz4a9",
        "lng": 121.7934519,
        "lat": 24.6863162
    },
    {
        "name": "奕順軒 羅東民權店",
        "address": "265台灣宜蘭縣羅東鎮民權路160號",
        "googlemap": "https://maps.app.goo.gl/oNxtnp19gtjCYUtk6",
        "lng": 121.7658838,
        "lat": 24.676623
    },
    {
        "name": "奕順軒 礁溪店",
        "address": "262台灣宜蘭縣礁溪鄉礁溪路五段96號",
        "googlemap": "https://maps.app.goo.gl/PPrBwjP61CjNfGxN7",
        "lng": 121.77190600000002,
        "lat": 24.826873799999998
    },
    {
        "name": "宜蘭餅-劉鐙徽原創-(羅東總店)",
        "address": "265台灣宜蘭縣羅東鎮純精路二段130號",
        "googlemap": "https://maps.app.goo.gl/LQksy4X3Ps2Hu7FbA",
        "lng": 121.763763,
        "lat": 24.676925999999998
    },
    {
        "name": "朝鋒餅舖/宜蘭伴手禮/宜蘭餅&牛舌餅",
        "address": "260台灣宜蘭縣宜蘭市東港路二段317號",
        "googlemap": "https://maps.app.goo.gl/sKxqKMj51qCeMFi49",
        "lng": 121.76333129999999,
        "lat": 24.7538247
    },
    {
        "name": "烏龜島OGOOD 咖啡甜點伴手禮|宜蘭名產|下午茶|採現場候位最後出餐17:00",
        "address": "269台灣宜蘭縣冬山鄉柯林一路297號",
        "googlemap": "https://maps.app.goo.gl/21z9rHSqMZrEV78Z7",
        "lng": 121.73276949999997,
        "lat": 24.679892799999998
    },
    {
        "name": "宜蘭餅-劉鐙徽原創-(礁溪店)",
        "address": "262台灣宜蘭縣礁溪鄉礁溪路五段106號",
        "googlemap": "https://maps.app.goo.gl/7FkrvrRY9SvoWbPt5",
        "lng": 121.772055,
        "lat": 24.827199999999998
    },
    {
        "name": "米樂客 宜蘭米蛋糕",
        "address": "265台灣宜蘭縣羅東鎮民權路166號",
        "googlemap": "https://maps.app.goo.gl/gWtWPJX5xxi8i8SQA",
        "lng": 121.76557249999999,
        "lat": 24.676699499999998
    },
    {
        "name": "宜蘭餅-劉鐙徽原創-(中山店)",
        "address": "260台灣宜蘭縣宜蘭市中山路三段206號",
        "googlemap": "https://maps.app.goo.gl/UccuBkTVovrGVnPJ6",
        "lng": 121.75331949999999,
        "lat": 24.7603379
    },
    {
        "name": "糧拾甜點烘焙工作室",
        "address": "268台灣宜蘭縣五結鄉中正路一段5號",
        "googlemap": "https://maps.app.goo.gl/BwiBLRaygNzEUERy5",
        "lng": 121.77002669999999,
        "lat": 24.6902957
    },
    {
        "name": "諾貝爾奶凍 - 羅東店",
        "address": "265台灣宜蘭縣羅東鎮公正路188號",
        "googlemap": "https://maps.app.goo.gl/1HU5LoFEscU4SNc49",
        "lng": 121.76824990000001,
        "lat": 24.679124299999998
    },
    {
        "name": "可立本宜蘭名產",
        "address": "260台灣宜蘭縣宜蘭市中山路三段330號",
        "googlemap": "https://maps.app.goo.gl/UN2PqMhC7LeaZHSH7",
        "lng": 121.75469319999999,
        "lat": 24.7636319
    },
    {
        "name": "聯全麻糬-林場門市 | 40年老字號手工麻糬 | 優質伴手禮 | 歡迎來電預購",
        "address": "265台灣宜蘭縣羅東鎮中正北路173號",
        "googlemap": "https://maps.app.goo.gl/jQQ4HvKYhyz67Kkr7",
        "lng": 121.7711631,
        "lat": 24.6841808
    },
    {
        "name": "阿萬之家 興東店",
        "address": "265台灣宜蘭縣羅東鎮興東路23-2號",
        "googlemap": "https://maps.app.goo.gl/vDs1dE3Y5wvoHWTcA",
        "lng": 121.76798559999999,
        "lat": 24.6769966
    },
    {
        "name": "金棗鄉宜蘭名產",
        "address": "265台灣宜蘭縣羅東鎮公正路48號",
        "googlemap": "https://maps.app.goo.gl/S5oKrUuj2cA7xTr5A",
        "lng": 121.773265,
        "lat": 24.677954
    },
    {
        "name": "李傳仁手工現點現作麻糬",
        "address": "26245台灣宜蘭縣礁溪鄉礁溪路一段312號",
        "googlemap": "https://maps.app.goo.gl/APwz5T1BomzSDaG2A",
        "lng": 121.76209899999999,
        "lat": 24.7899116
    },
    {
        "name": "和順鴨賞之家｜宜蘭伴手禮 蘇澳伴手禮 宜蘭蘇澳名產",
        "address": "270台灣宜蘭縣蘇澳鎮義路150號",
        "googlemap": "https://maps.app.goo.gl/fVN6GyE2EA6vEqpm6",
        "lng": 121.8285892,
        "lat": 24.615587299999998
    },
    {
        "name": "宜蘭餅發明館",
        "address": "270台灣宜蘭縣蘇澳鎮海山西路369號",
        "googlemap": "https://maps.app.goo.gl/AUJWtoigPuhJUahr5",
        "lng": 121.8291677,
        "lat": 24.6145577
    },
    {
        "name": "烏龜島（小桔子）",
        "address": "269台灣宜蘭縣冬山鄉柯林一路297號",
        "googlemap": "https://maps.app.goo.gl/BZ7PC4CsouoKuKHX8",
        "lng": 121.73271030000001,
        "lat": 24.679973099999998
    },
    {
        "name": "桂林蜜餞腊味名產公司",
        "address": "265台灣宜蘭縣羅東鎮中正路214號",
        "googlemap": "https://maps.app.goo.gl/MDgGJRGd19KDF6SQ9",
        "lng": 121.77218649999999,
        "lat": 24.6778753
    },
    {
        "name": "長房老元香",
        "address": "260台灣宜蘭縣宜蘭市神農路二段85號",
        "googlemap": "https://maps.app.goo.gl/aNHBKPus2vEP6FLH6",
        "lng": 121.75117549999999,
        "lat": 24.752658399999998
    },
    {
        "name": "素珍花生糖國宴花生磚",
        "address": "260宜蘭縣宜蘭市環市東路一段一巷86號",
        "googlemap": "https://maps.app.goo.gl/ryYUWe2dTwreiUCD6",
        "lng": 121.76997630000001,
        "lat": 24.724876899999998
    },
    {
        "name": "高連登宜蘭名產羅東店",
        "address": "265台灣宜蘭縣羅東鎮維揚路166號",
        "googlemap": "https://maps.app.goo.gl/igkbTA3DATGN43pL9",
        "lng": 121.7585678,
        "lat": 24.6720667
    },
    {
        "name": "原鄉之味宜蘭名產",
        "address": "260台灣宜蘭縣宜蘭市宜興路一段235號",
        "googlemap": "https://maps.app.goo.gl/Gnr9Nzg5kJ75ge6m7",
        "lng": 121.7577048,
        "lat": 24.7554835
    },
    {
        "name": "鎧源食品商行",
        "address": "265台灣宜蘭縣羅東鎮中正街82號",
        "googlemap": "https://maps.app.goo.gl/s4rcE5NKHpwTCFWb7",
        "lng": 121.77076830000001,
        "lat": 24.6754268
    },
    {
        "name": "華格食品烘焙坊-宜蘭名產伴手禮專賣三星蔥的故鄉(康成食品)",
        "address": "265台灣宜蘭縣羅東鎮光榮路336號",
        "googlemap": "https://maps.app.goo.gl/tjn2w8c1UVe1MGw69",
        "lng": 121.77811399999997,
        "lat": 24.6785571
    },
    {
        "name": "手信坊-宜蘭蘇澳門市",
        "address": "270台灣宜蘭縣蘇澳鎮270",
        "googlemap": "https://maps.app.goo.gl/f1FVnWP7atdtNfXKA",
        "lng": 121.8158302,
        "lat": 24.6214722
    },
    {
        "name": "李阿又餅店",
        "address": "265台灣宜蘭縣羅東鎮中山西街17號",
        "googlemap": "https://maps.app.goo.gl/ENJBgF8D5nW38ePYA",
        "lng": 121.76970399999998,
        "lat": 24.674597
    },
    {
        "name": "老元香",
        "address": "260台灣宜蘭縣宜蘭市康樂路158號",
        "googlemap": "https://maps.app.goo.gl/ivhP7VGfEqY2z1mv7",
        "lng": 121.75302099999999,
        "lat": 24.756634
    },
    {
        "name": "正老元香食品廠",
        "address": "260台灣宜蘭縣宜蘭市和睦路77號",
        "googlemap": "https://maps.app.goo.gl/ZsW7Uw1n9NPjFsbp9",
        "lng": 121.7573931,
        "lat": 24.7571578
    }
]